{"nom":"Le Mans", "latitude":48.00367, "longitude":0.19788}

{"nom":"Ecommoy", "latitude":47.8231, "longitude":0.2875}

{"nom":"Château du Loir", "latitude":47.6996, "longitude":0.4321}

{"nom":"Neuillé Pont Pierre", "latitude":47.5468, "longitude":0.5537}

{"nom":"Tours", "latitude":47.3943, "longitude":0.6951}

{"nom":"Chinon", "latitude":47.1692, "longitude":0.2433}

{"nom":"Marigny-Marmande", "latitude":46.9771, "longitude":0.4809}

{"nom":"Châtellerault", "latitude":46.8148, "longitude":0.5584}

{"nom":"Poitiers", "latitude":46.5846 , "longitude":0.3714} 

{"nom":"Verrières", "latitude":46.4019, "longitude":0.5979}

{"nom":"Bussière Poitevine", "latitude": 46.2402, "longitude":0.8962}
 
{"nom":"Bellac", "latitude":46.1014, "longitude":1.0326}

{"nom":"Guéret", "latitude":46.1587, "longitude":1.8705}

{"nom":"Bourganeuf", "latitude":45.9473, "longitude":1.7467}

{"nom":"Bussière Poitevine", "latitude":46.2402 , "longitude":0.8962}

{"nom":"Limoges", "latitude":45.85 , "longitude":1.25}

{"nom":"Vicq-sur-Breuilh", "latitude":45.6461 , "longitude":1.3814} 

{"nom":"Uzerche", "latitude":45.425556 , "longitude":1.564167} 

{"nom":"Brive-la-Gaillarde", "latitude":45.158317 , "longitude":1.532078}

{"nom":"Lachapelle-Auzac", "latitude":44.909167 , "longitude":1.473333}

{"nom":"Ussel", "latitude":45.5489 , "longitude":2.31}

, 
Cahors
44.448333, 1.441389
Montpezat-de-Quercy
44.239167, 1.477222
Montauban
44.018056, 1.355833
Grenade
43.772222, 1.293611
Toulouse
43.604482, 1.443962
Baziège
43.4554, 1.616
Castelnaudary
43.319167, 1.954444
Carassonne
43.21306, 2.352028
Fabrezan
43.136389, 2.697778
Saint-Jean-de-Barrou
42.9583, 2.8406
Perpignan
42.698611, 2.895556
Le Boulou
42.524722, 2.830833
Banyuls-sur-Mer
42.483056, 3.128056
